[
    { 
        "latitude" : 25.009342719184026, 
        "longitude" : 102.72982937282985, 
        "address" : "云南省昆明市官渡区春城路靠近昆明国际会展中心", 
        "poiName" : "昆明国际会展中心"
    },
    { 
        "latitude" : 25.00998779296875, 
        "longitude" : 102.72960964626736, 
        "address" : "云南省昆明市官渡区春城路靠近昆明国际会展中心", 
        "poiName" : "昆明国际会展中心"
    },
    { 
        "latitude" : 25.010685221354166, 
        "longitude" : 102.72942708333333, 
        "address" : "云南省昆明市官渡区春城路靠近昆明国际会展中心", 
        "poiName" : "昆明国际会展中心"
    },
    { 
        "latitude" : 25.01143527560764, 
        "longitude" : 102.72923529730903, 
        "address" : "云南省昆明市官渡区春城路靠近昆明国际会展中心", 
        "poiName" : "昆明国际会展中心"
    },
    { 
        "latitude" : 25.01199652777778, 
        "longitude" : 102.72900200737847, 
        "address" : "云南省昆明市官渡区春城路靠近昆明国际会展中心", 
        "poiName" : "昆明国际会展中心"
    },
    { 
        "latitude" : 25.01247775607639, 
        "longitude" : 102.72881401909723, 
        "address" : "云南省昆明市官渡区春城路靠近昆明国际会展中心", 
        "poiName" : "昆明国际会展中心"
    },
    { 
        "latitude" : 25.013322211371527, 
        "longitude" : 102.72850640190973, 
        "address" : "云南省昆明市官渡区春城路靠近沃尔玛(昆明国贸中心店)", 
        "poiName" : "沃尔玛(昆明国贸中心店)"
    },
    { 
        "latitude" : 25.013963487413193, 
        "longitude" : 102.72829345703126, 
        "address" : "云南省昆明市官渡区春城路靠近沃尔玛(昆明国贸中心店)", 
        "poiName" : "沃尔玛(昆明国贸中心店)"
    },
    { 
        "latitude" : 25.014681532118054, 
        "longitude" : 102.72810139973959, 
        "address" : "云南省昆明市官渡区春城路靠近沃尔玛(昆明国贸中心店)", 
        "poiName" : "沃尔玛(昆明国贸中心店)"
    },
    { 
        "latitude" : 25.015393608940972, 
        "longitude" : 102.72790635850694, 
        "address" : "云南省昆明市官渡区春城路靠近福德立交桥", 
        "poiName" : "福德立交桥"
    },
    { 
        "latitude" : 25.0160400390625, 
        "longitude" : 102.72769151475694, 
        "address" : "云南省昆明市官渡区春城路靠近昆明市公安局金盾小区", 
        "poiName" : "昆明市公安局金盾小区"
    },
    { 
        "latitude" : 25.016993543836804, 
        "longitude" : 102.72744086371527, 
        "address" : "云南省昆明市官渡区春城路靠近昆明市公安局金盾小区", 
        "poiName" : "昆明市公安局金盾小区"
    },
    { 
        "latitude" : 25.017779405381944, 
        "longitude" : 102.72719699435764, 
        "address" : "云南省昆明市官渡区春城路靠近昆明市公安局金盾小区", 
        "poiName" : "昆明市公安局金盾小区"
    },
    { 
        "latitude" : 25.018368598090277, 
        "longitude" : 102.72702880859374, 
        "address" : "云南省昆明市官渡区民航路靠近泰康园", 
        "poiName" : "泰康园"
    },
    { 
        "latitude" : 25.01896755642361, 
        "longitude" : 102.72686008029514, 
        "address" : "云南省昆明市官渡区民航路靠近泰康园", 
        "poiName" : "泰康园"
    },
    { 
        "latitude" : 25.019277615017362, 
        "longitude" : 102.72677870008681, 
        "address" : "云南省昆明市官渡区民航路靠近泰康园", 
        "poiName" : "泰康园"
    },
    { 
        "latitude" : 25.020005696614582, 
        "longitude" : 102.72655354817708, 
        "address" : "云南省昆明市官渡区春城路靠近永平苑", 
        "poiName" : "永平苑"
    },
    { 
        "latitude" : 25.020791015625, 
        "longitude" : 102.72629855685764, 
        "address" : "云南省昆明市官渡区春城路靠近盛达花园", 
        "poiName" : "盛达花园"
    },
    { 
        "latitude" : 25.021583658854166, 
        "longitude" : 102.72603407118055, 
        "address" : "云南省昆明市官渡区春城路靠近盛达花园", 
        "poiName" : "盛达花园"
    },
    { 
        "latitude" : 25.022202962239582, 
        "longitude" : 102.7258544921875, 
        "address" : "云南省昆明市官渡区春城路靠近东航投资大厦", 
        "poiName" : "东航投资大厦"
    },
    { 
        "latitude" : 25.022833387586804, 
        "longitude" : 102.72568657769098, 
        "address" : "云南省昆明市官渡区春城路靠近东航投资大厦", 
        "poiName" : "东航投资大厦"
    },
    { 
        "latitude" : 25.023272840711805, 
        "longitude" : 102.72564398871528, 
        "address" : "云南省昆明市官渡区春城路靠近东航投资大厦", 
        "poiName" : "东航投资大厦"
    },
    { 
        "latitude" : 25.0236279296875, 
        "longitude" : 102.72563395182291, 
        "address" : "云南省昆明市官渡区春城路靠近怡景宾馆(春城店)", 
        "poiName" : "怡景宾馆(春城店)"
    },
    { 
        "latitude" : 25.023998209635415, 
        "longitude" : 102.72565212673611, 
        "address" : "云南省昆明市官渡区春城路靠近怡景宾馆(春城店)", 
        "poiName" : "怡景宾馆(春城店)"
    },
    { 
        "latitude" : 25.024347330729167, 
        "longitude" : 102.72564019097223, 
        "address" : "云南省昆明市官渡区春城路靠近福保大酒店", 
        "poiName" : "福保大酒店"
    },
    { 
        "latitude" : 25.02481228298611, 
        "longitude" : 102.7256675889757, 
        "address" : "云南省昆明市官渡区环城南路靠近百富琪商业广场", 
        "poiName" : "百富琪商业广场"
    },
    { 
        "latitude" : 25.025244140625, 
        "longitude" : 102.72562228732639, 
        "address" : "云南省昆明市官渡区环城南路靠近百富琪商业广场", 
        "poiName" : "百富琪商业广场"
    },
    { 
        "latitude" : 25.025654296875, 
        "longitude" : 102.72563503689236, 
        "address" : "云南省昆明市官渡区环城南路靠近百富琪商业广场", 
        "poiName" : "百富琪商业广场"
    },
    { 
        "latitude" : 25.02616238064236, 
        "longitude" : 102.72567138671874, 
        "address" : "云南省昆明市官渡区环城南路靠近百富琪商业广场", 
        "poiName" : "百富琪商业广场"
    },
    { 
        "latitude" : 25.026629503038194, 
        "longitude" : 102.72566243489584, 
        "address" : "云南省昆明市官渡区环城南路靠近广合苑", 
        "poiName" : "广合苑"
    },
    { 
        "latitude" : 25.02705376519097, 
        "longitude" : 102.72571587456598, 
        "address" : "云南省昆明市官渡区春城路靠近兴杰现代城", 
        "poiName" : "兴杰现代城"
    },
    { 
        "latitude" : 25.02753363715278, 
        "longitude" : 102.72566460503472, 
        "address" : "云南省昆明市官渡区春城路靠近兴杰现代城", 
        "poiName" : "兴杰现代城"
    },
    { 
        "latitude" : 25.027571614583334, 
        "longitude" : 102.72565239800348, 
        "address" : "云南省昆明市官渡区春城路靠近兴杰现代城", 
        "poiName" : "兴杰现代城"
    },
    { 
        "latitude" : 25.02757269965278, 
        "longitude" : 102.72565185546875, 
        "address" : "云南省昆明市官渡区春城路靠近兴杰现代城", 
        "poiName" : "兴杰现代城"
    },
    { 
        "latitude" : 25.02757269965278, 
        "longitude" : 102.72565158420139, 
        "address" : "云南省昆明市官渡区春城路靠近兴杰现代城", 
        "poiName" : "兴杰现代城"
    },
    { 
        "latitude" : 25.027711588541667, 
        "longitude" : 102.72565456814236, 
        "address" : "云南省昆明市官渡区春城路靠近兴杰现代城", 
        "poiName" : "兴杰现代城"
    },
    { 
        "latitude" : 25.028111979166667, 
        "longitude" : 102.72566677517361, 
        "address" : "云南省昆明市官渡区春城路靠近兴杰现代城", 
        "poiName" : "兴杰现代城"
    },
    { 
        "latitude" : 25.028501790364583, 
        "longitude" : 102.72566677517361, 
        "address" : "云南省昆明市官渡区春城路靠近石井小区", 
        "poiName" : "石井小区"
    },
    { 
        "latitude" : 25.02901394314236, 
        "longitude" : 102.72567898220485, 
        "address" : "云南省昆明市官渡区春城路靠近石井小区", 
        "poiName" : "石井小区"
    },
    { 
        "latitude" : 25.029496527777777, 
        "longitude" : 102.72566379123263, 
        "address" : "云南省昆明市官渡区春城路靠近石井小区", 
        "poiName" : "石井小区"
    },
    { 
        "latitude" : 25.03000027126736, 
        "longitude" : 102.7256724717882, 
        "address" : "云南省昆明市官渡区春城路靠近石井小区", 
        "poiName" : "石井小区"
    },
    { 
        "latitude" : 25.030596788194444, 
        "longitude" : 102.72570936414931, 
        "address" : "云南省昆明市官渡区春城路靠近摩尔大厦", 
        "poiName" : "摩尔大厦"
    },
    { 
        "latitude" : 25.031210123697917, 
        "longitude" : 102.72565809461805, 
        "address" : "云南省昆明市官渡区春城路靠近思普写字楼", 
        "poiName" : "思普写字楼"
    },
    { 
        "latitude" : 25.031878255208333, 
        "longitude" : 102.72566189236112, 
        "address" : "云南省昆明市官渡区春城路靠近加油周刊", 
        "poiName" : "加油周刊"
    },
    { 
        "latitude" : 25.032439507378474, 
        "longitude" : 102.7256675889757, 
        "address" : "云南省昆明市官渡区春城路靠近建委小区(石家巷)", 
        "poiName" : "建委小区(石家巷)"
    },
    { 
        "latitude" : 25.032601182725696, 
        "longitude" : 102.72564615885416, 
        "address" : "云南省昆明市官渡区春城路靠近建委小区(石家巷)", 
        "poiName" : "建委小区(石家巷)"
    },
    { 
        "latitude" : 25.033139919704862, 
        "longitude" : 102.72566514756944, 
        "address" : "云南省昆明市官渡区春城路靠近建委小区(石家巷)", 
        "poiName" : "建委小区(石家巷)"
    },
    { 
        "latitude" : 25.033265787760417, 
        "longitude" : 102.72565104166667, 
        "address" : "云南省昆明市官渡区春城路靠近建委小区(石家巷)", 
        "poiName" : "建委小区(石家巷)"
    },
    { 
        "latitude" : 25.033441569010417, 
        "longitude" : 102.72568060980903, 
        "address" : "云南省昆明市官渡区春城路靠近建委小区(石家巷)", 
        "poiName" : "建委小区(石家巷)"
    },
    { 
        "latitude" : 25.033736979166665, 
        "longitude" : 102.72575439453125, 
        "address" : "云南省昆明市官渡区春城路靠近建委小区(石家巷)", 
        "poiName" : "建委小区(石家巷)"
    },
    { 
        "latitude" : 25.033741319444445, 
        "longitude" : 102.72573866102431, 
        "address" : "云南省昆明市盘龙区拓东路靠近绿洲大酒店", 
        "poiName" : "绿洲大酒店"
    },
    { 
        "latitude" : 25.03373806423611, 
        "longitude" : 102.72573160807292, 
        "address" : "云南省昆明市盘龙区拓东路靠近绿洲大酒店", 
        "poiName" : "绿洲大酒店"
    },
    { 
        "latitude" : 25.033744303385415, 
        "longitude" : 102.725712890625, 
        "address" : "云南省昆明市盘龙区拓东路靠近绿洲大酒店", 
        "poiName" : "绿洲大酒店"
    },
    { 
        "latitude" : 25.033775499131945, 
        "longitude" : 102.72570556640625, 
        "address" : "云南省昆明市盘龙区拓东路靠近绿洲大酒店", 
        "poiName" : "绿洲大酒店"
    },
    { 
        "latitude" : 25.03374267578125, 
        "longitude" : 102.72574788411458, 
        "address" : "云南省昆明市盘龙区拓东路靠近绿洲大酒店", 
        "poiName" : "绿洲大酒店"
    },
    { 
        "latitude" : 25.033760850694446, 
        "longitude" : 102.72572021484375, 
        "address" : "云南省昆明市盘龙区拓东路靠近绿洲大酒店", 
        "poiName" : "绿洲大酒店"
    },
    { 
        "latitude" : 25.03375217013889, 
        "longitude" : 102.72571017795138, 
        "address" : "云南省昆明市盘龙区拓东路靠近绿洲大酒店", 
        "poiName" : "绿洲大酒店"
    },
    { 
        "latitude" : 25.033768174913195, 
        "longitude" : 102.72565538194445, 
        "address" : "云南省昆明市盘龙区拓东路靠近绿洲大酒店", 
        "poiName" : "绿洲大酒店"
    },
    { 
        "latitude" : 25.033796115451388, 
        "longitude" : 102.72564181857639, 
        "address" : "云南省昆明市盘龙区拓东路靠近绿洲大酒店", 
        "poiName" : "绿洲大酒店"
    },
    { 
        "latitude" : 25.033801812065974, 
        "longitude" : 102.72560818142361, 
        "address" : "云南省昆明市盘龙区拓东路靠近绿洲大酒店", 
        "poiName" : "绿洲大酒店"
    },
    { 
        "latitude" : 25.033795030381945, 
        "longitude" : 102.72514729817708, 
        "address" : "云南省昆明市盘龙区拓东路靠近绿洲大酒店", 
        "poiName" : "绿洲大酒店"
    },
    { 
        "latitude" : 25.033679741753474, 
        "longitude" : 102.72456759982639, 
        "address" : "云南省昆明市盘龙区拓东路靠近绿洲大酒店", 
        "poiName" : "绿洲大酒店"
    },
    { 
        "latitude" : 25.033721516927084, 
        "longitude" : 102.72422146267361, 
        "address" : "云南省昆明市盘龙区拓东路靠近绿洲大酒店", 
        "poiName" : "绿洲大酒店"
    },
    { 
        "latitude" : 25.033700629340277, 
        "longitude" : 102.72386474609375, 
        "address" : "云南省昆明市盘龙区拓东路靠近绿洲大酒店", 
        "poiName" : "绿洲大酒店"
    },
    { 
        "latitude" : 25.03368679470486, 
        "longitude" : 102.72315999348959, 
        "address" : "云南省昆明市盘龙区拓东路靠近尚义公馆", 
        "poiName" : "尚义公馆"
    },
    { 
        "latitude" : 25.033499891493054, 
        "longitude" : 102.72253309461806, 
        "address" : "云南省昆明市盘龙区拓东路靠近尚义公馆", 
        "poiName" : "尚义公馆"
    },
    { 
        "latitude" : 25.033469780815974, 
        "longitude" : 102.72204074435764, 
        "address" : "云南省昆明市官渡区拓东路靠近澜沧江花园", 
        "poiName" : "澜沧江花园"
    },
    { 
        "latitude" : 25.03345431857639, 
        "longitude" : 102.72135470920139, 
        "address" : "云南省昆明市官渡区拓东路靠近澜沧江大厦", 
        "poiName" : "澜沧江大厦"
    },
    { 
        "latitude" : 25.033469780815974, 
        "longitude" : 102.72081136067709, 
        "address" : "云南省昆明市官渡区拓东路靠近澜沧江大厦", 
        "poiName" : "澜沧江大厦"
    },
    { 
        "latitude" : 25.033483072916667, 
        "longitude" : 102.72031928168403, 
        "address" : "云南省昆明市官渡区拓东路靠近海天酒店", 
        "poiName" : "海天酒店"
    },
    { 
        "latitude" : 25.03349310980903, 
        "longitude" : 102.72021023220486, 
        "address" : "云南省昆明市官渡区拓东路靠近海天酒店", 
        "poiName" : "海天酒店"
    },
    { 
        "latitude" : 25.033499620225694, 
        "longitude" : 102.72019476996527, 
        "address" : "云南省昆明市官渡区拓东路靠近海天酒店", 
        "poiName" : "海天酒店"
    },
    { 
        "latitude" : 25.033506673177083, 
        "longitude" : 102.72018310546875, 
        "address" : "云南省昆明市官渡区拓东路靠近海天酒店", 
        "poiName" : "海天酒店"
    },
    { 
        "latitude" : 25.033513997395833, 
        "longitude" : 102.72017279730903, 
        "address" : "云南省昆明市官渡区拓东路靠近海天酒店", 
        "poiName" : "海天酒店"
    },
    { 
        "latitude" : 25.033513726128472, 
        "longitude" : 102.72017333984375, 
        "address" : "云南省昆明市官渡区拓东路靠近海天酒店", 
        "poiName" : "海天酒店"
    },
    { 
        "latitude" : 25.03351345486111, 
        "longitude" : 102.72017361111111, 
        "address" : "云南省昆明市官渡区拓东路靠近海天酒店", 
        "poiName" : "海天酒店"
    },
    { 
        "latitude" : 25.03351345486111, 
        "longitude" : 102.72017361111111, 
        "address" : "云南省昆明市官渡区拓东路靠近海天酒店", 
        "poiName" : "海天酒店"
    },
    { 
        "latitude" : 25.03351345486111, 
        "longitude" : 102.72017333984375, 
        "address" : "云南省昆明市官渡区拓东路靠近海天酒店", 
        "poiName" : "海天酒店"
    },
    { 
        "latitude" : 25.03351345486111, 
        "longitude" : 102.72017306857639, 
        "address" : "云南省昆明市官渡区拓东路靠近海天酒店", 
        "poiName" : "海天酒店"
    },
    { 
        "latitude" : 25.03351345486111, 
        "longitude" : 102.72017306857639, 
        "address" : "云南省昆明市官渡区拓东路靠近海天酒店", 
        "poiName" : "海天酒店"
    },
    { 
        "latitude" : 25.03351345486111, 
        "longitude" : 102.72017333984375, 
        "address" : "云南省昆明市官渡区拓东路靠近海天酒店", 
        "poiName" : "海天酒店"
    },
    { 
        "latitude" : 25.033496636284724, 
        "longitude" : 102.72008599175348, 
        "address" : "云南省昆明市官渡区拓东路靠近海天酒店", 
        "poiName" : "海天酒店"
    },
    { 
        "latitude" : 25.03341986762153, 
        "longitude" : 102.71968180338541, 
        "address" : "云南省昆明市官渡区拓东路靠近海天酒店", 
        "poiName" : "海天酒店"
    },
    { 
        "latitude" : 25.03340576171875, 
        "longitude" : 102.71959309895833, 
        "address" : "云南省昆明市官渡区拓东路靠近海天酒店", 
        "poiName" : "海天酒店"
    },
    { 
        "latitude" : 25.033410915798612, 
        "longitude" : 102.71930447048611, 
        "address" : "云南省昆明市官渡区拓东路靠近海天酒店", 
        "poiName" : "海天酒店"
    },
    { 
        "latitude" : 25.03340603298611, 
        "longitude" : 102.71890380859375, 
        "address" : "云南省昆明市官渡区拓东路靠近昆铁得胜大厦", 
        "poiName" : "昆铁得胜大厦"
    },
    { 
        "latitude" : 25.033407660590278, 
        "longitude" : 102.71864284939237, 
        "address" : "云南省昆明市官渡区拓东路靠近昆铁得胜大厦", 
        "poiName" : "昆铁得胜大厦"
    },
    { 
        "latitude" : 25.033368326822917, 
        "longitude" : 102.7183460828993, 
        "address" : "云南省昆明市官渡区拓东路靠近昆铁得胜大厦", 
        "poiName" : "昆铁得胜大厦"
    },
    { 
        "latitude" : 25.0333984375, 
        "longitude" : 102.71781901041666, 
        "address" : "云南省昆明市官渡区拓东路靠近昆铁得胜大厦", 
        "poiName" : "昆铁得胜大厦"
    },
    { 
        "latitude" : 25.033449164496528, 
        "longitude" : 102.71760986328125, 
        "address" : "云南省昆明市官渡区拓东路靠近昆铁得胜大厦", 
        "poiName" : "昆铁得胜大厦"
    },
    { 
        "latitude" : 25.033532172309027, 
        "longitude" : 102.71740831163194, 
        "address" : "云南省昆明市官渡区拓东路靠近昆铁得胜大厦", 
        "poiName" : "昆铁得胜大厦"
    },
    { 
        "latitude" : 25.033585883246527, 
        "longitude" : 102.71713460286459, 
        "address" : "云南省昆明市盘龙区金碧路靠近一心堂(昆明巡津街店)", 
        "poiName" : "一心堂(昆明巡津街店)"
    },
    { 
        "latitude" : 25.033612467447917, 
        "longitude" : 102.71713623046875, 
        "address" : "云南省昆明市盘龙区金碧路靠近一心堂(昆明巡津街店)", 
        "poiName" : "一心堂(昆明巡津街店)"
    },
    { 
        "latitude" : 25.03361572265625, 
        "longitude" : 102.71706515842014, 
        "address" : "云南省昆明市盘龙区金碧路靠近一心堂(昆明巡津街店)", 
        "poiName" : "一心堂(昆明巡津街店)"
    },
    { 
        "latitude" : 25.033624403211807, 
        "longitude" : 102.71689751519098, 
        "address" : "云南省昆明市盘龙区金碧路靠近一心堂(昆明巡津街店)", 
        "poiName" : "一心堂(昆明巡津街店)"
    },
    { 
        "latitude" : 25.033590223524307, 
        "longitude" : 102.71668131510417, 
        "address" : "云南省昆明市盘龙区金碧路靠近一心堂(昆明巡津街店)", 
        "poiName" : "一心堂(昆明巡津街店)"
    },
    { 
        "latitude" : 25.0335693359375, 
        "longitude" : 102.71610758463542, 
        "address" : "云南省昆明市五华区青年路靠近一心堂(昆明巡津街店)", 
        "poiName" : "一心堂(昆明巡津街店)"
    },
    { 
        "latitude" : 25.033610026041668, 
        "longitude" : 102.7157421875, 
        "address" : "云南省昆明市五华区护国路靠近广业大厦", 
        "poiName" : "广业大厦"
    },
    { 
        "latitude" : 25.033668891059026, 
        "longitude" : 102.71546576605903, 
        "address" : "云南省昆明市五华区护国路靠近广业大厦", 
        "poiName" : "广业大厦"
    },
    { 
        "latitude" : 25.033712565104167, 
        "longitude" : 102.71524061414931, 
        "address" : "云南省昆明市五华区护国路靠近广业大厦", 
        "poiName" : "广业大厦"
    },
    { 
        "latitude" : 25.033645833333335, 
        "longitude" : 102.7146630859375, 
        "address" : "云南省昆明市五华区金碧路靠近广业大厦", 
        "poiName" : "广业大厦"
    },
    { 
        "latitude" : 25.03364013671875, 
        "longitude" : 102.7141015625, 
        "address" : "云南省昆明市五华区金碧路靠近广业大厦", 
        "poiName" : "广业大厦"
    },
    { 
        "latitude" : 25.033607042100694, 
        "longitude" : 102.71355523003473, 
        "address" : "云南省昆明市五华区金碧路靠近广业大厦", 
        "poiName" : "广业大厦"
    },
    { 
        "latitude" : 25.033617078993057, 
        "longitude" : 102.71315158420138, 
        "address" : "云南省昆明市五华区金碧路靠近建行云南省分行机关大楼", 
        "poiName" : "建行云南省分行机关大楼"
    },
    { 
        "latitude" : 25.033613009982638, 
        "longitude" : 102.71283664279514, 
        "address" : "云南省昆明市五华区金碧路靠近建行云南省分行机关大楼", 
        "poiName" : "建行云南省分行机关大楼"
    },
    { 
        "latitude" : 25.033564995659724, 
        "longitude" : 102.71280843098958, 
        "address" : "云南省昆明市五华区金碧路靠近建行云南省分行机关大楼", 
        "poiName" : "建行云南省分行机关大楼"
    },
    { 
        "latitude" : 25.033497178819445, 
        "longitude" : 102.7123961046007, 
        "address" : "云南省昆明市五华区金碧路靠近建行云南省分行机关大楼", 
        "poiName" : "建行云南省分行机关大楼"
    },
    { 
        "latitude" : 25.033477647569445, 
        "longitude" : 102.71166965060763, 
        "address" : "云南省昆明市五华区金碧路靠近建行云南省分行机关大楼", 
        "poiName" : "建行云南省分行机关大楼"
    },
    { 
        "latitude" : 25.03357177734375, 
        "longitude" : 102.7113392469618, 
        "address" : "云南省昆明市五华区金碧路靠近金碧公园", 
        "poiName" : "金碧公园"
    },
    { 
        "latitude" : 25.03361328125, 
        "longitude" : 102.71108696831597, 
        "address" : "云南省昆明市五华区金碧路靠近金碧公园", 
        "poiName" : "金碧公园"
    },
    { 
        "latitude" : 25.03368625217014, 
        "longitude" : 102.71085964626737, 
        "address" : "云南省昆明市五华区金碧路靠近金碧公园", 
        "poiName" : "金碧公园"
    },
    { 
        "latitude" : 25.03382025824653, 
        "longitude" : 102.7103795030382, 
        "address" : "云南省昆明市五华区金碧路靠近金碧广场", 
        "poiName" : "金碧广场"
    },
    { 
        "latitude" : 25.033843587239584, 
        "longitude" : 102.71026340060764, 
        "address" : "云南省昆明市五华区金碧路靠近金碧广场", 
        "poiName" : "金碧广场"
    },
    { 
        "latitude" : 25.03384738498264, 
        "longitude" : 102.71010552300348, 
        "address" : "云南省昆明市五华区金碧路靠近金碧广场", 
        "poiName" : "金碧广场"
    },
    { 
        "latitude" : 25.033837890625, 
        "longitude" : 102.71002468532986, 
        "address" : "云南省昆明市五华区金碧路靠近益珑大厦", 
        "poiName" : "益珑大厦"
    },
    { 
        "latitude" : 25.033833821614582, 
        "longitude" : 102.70999593098958, 
        "address" : "云南省昆明市五华区金碧路靠近益珑大厦", 
        "poiName" : "益珑大厦"
    },
    { 
        "latitude" : 25.033688693576387, 
        "longitude" : 102.70997884114583, 
        "address" : "云南省昆明市五华区金碧路靠近益珑大厦", 
        "poiName" : "益珑大厦"
    },
    { 
        "latitude" : 25.03357693142361, 
        "longitude" : 102.71003472222222, 
        "address" : "云南省昆明市五华区金碧路靠近益珑大厦", 
        "poiName" : "益珑大厦"
    },
    { 
        "latitude" : 25.03354302300347, 
        "longitude" : 102.71018310546874, 
        "address" : "云南省昆明市五华区金碧路靠近益珑大厦", 
        "poiName" : "益珑大厦"
    },
    { 
        "latitude" : 25.033497178819445, 
        "longitude" : 102.7107337782118, 
        "address" : "云南省昆明市五华区金碧路靠近益珑大厦", 
        "poiName" : "益珑大厦"
    },
    { 
        "latitude" : 25.033260362413195, 
        "longitude" : 102.71134602864583, 
        "address" : "云南省昆明市西山区金碧路靠近金碧广场", 
        "poiName" : "金碧广场"
    },
    { 
        "latitude" : 25.033235677083333, 
        "longitude" : 102.71156901041667, 
        "address" : "云南省昆明市西山区金碧路靠近金碧广场", 
        "poiName" : "金碧广场"
    },
    { 
        "latitude" : 25.033251953125, 
        "longitude" : 102.71194661458334, 
        "address" : "云南省昆明市西山区金碧路靠近时代广场(盘龙路)", 
        "poiName" : "时代广场(盘龙路)"
    },
    { 
        "latitude" : 25.03324517144097, 
        "longitude" : 102.71257269965278, 
        "address" : "云南省昆明市西山区金碧路靠近时代广场(盘龙路)", 
        "poiName" : "时代广场(盘龙路)"
    },
    { 
        "latitude" : 25.03323811848958, 
        "longitude" : 102.71303466796876, 
        "address" : "云南省昆明市西山区金碧路靠近时代广场(盘龙路)", 
        "poiName" : "时代广场(盘龙路)"
    },
    { 
        "latitude" : 25.033245442708335, 
        "longitude" : 102.71378851996528, 
        "address" : "云南省昆明市西山区金碧路靠近崇善大厦", 
        "poiName" : "崇善大厦"
    },
    { 
        "latitude" : 25.033281521267362, 
        "longitude" : 102.71452962239583, 
        "address" : "云南省昆明市西山区金碧路靠近云津大厦", 
        "poiName" : "云津大厦"
    },
    { 
        "latitude" : 25.033321668836805, 
        "longitude" : 102.71544623480902, 
        "address" : "云南省昆明市西山区金碧路靠近云津大厦", 
        "poiName" : "云津大厦"
    },
    { 
        "latitude" : 25.033279622395835, 
        "longitude" : 102.71597086588541, 
        "address" : "云南省昆明市西山区金碧路靠近云津大厦", 
        "poiName" : "云津大厦"
    },
    { 
        "latitude" : 25.03331325954861, 
        "longitude" : 102.716279296875, 
        "address" : "云南省昆明市西山区金碧路靠近一心堂(昆明巡津街店)", 
        "poiName" : "一心堂(昆明巡津街店)"
    },
    { 
        "latitude" : 25.0333447265625, 
        "longitude" : 102.71635036892361, 
        "address" : "云南省昆明市西山区金碧路靠近一心堂(昆明巡津街店)", 
        "poiName" : "一心堂(昆明巡津街店)"
    },
    { 
        "latitude" : 25.033359375, 
        "longitude" : 102.71635362413194, 
        "address" : "云南省昆明市西山区金碧路靠近一心堂(昆明巡津街店)", 
        "poiName" : "一心堂(昆明巡津街店)"
    },
    { 
        "latitude" : 25.033347710503474, 
        "longitude" : 102.7163525390625, 
        "address" : "云南省昆明市西山区金碧路靠近一心堂(昆明巡津街店)", 
        "poiName" : "一心堂(昆明巡津街店)"
    },
    { 
        "latitude" : 25.03334445529514, 
        "longitude" : 102.71635498046875, 
        "address" : "云南省昆明市西山区金碧路靠近一心堂(昆明巡津街店)", 
        "poiName" : "一心堂(昆明巡津街店)"
    },
    { 
        "latitude" : 25.033343641493055, 
        "longitude" : 102.71635416666666, 
        "address" : "云南省昆明市西山区金碧路靠近一心堂(昆明巡津街店)", 
        "poiName" : "一心堂(昆明巡津街店)"
    },
    { 
        "latitude" : 25.033343641493055, 
        "longitude" : 102.71635416666666, 
        "address" : "云南省昆明市西山区金碧路靠近一心堂(昆明巡津街店)", 
        "poiName" : "一心堂(昆明巡津街店)"
    },
    { 
        "latitude" : 25.033343912760415, 
        "longitude" : 102.71635443793403, 
        "address" : "云南省昆明市西山区金碧路靠近一心堂(昆明巡津街店)", 
        "poiName" : "一心堂(昆明巡津街店)"
    },
    { 
        "latitude" : 25.033318956163196, 
        "longitude" : 102.71651285807292, 
        "address" : "云南省昆明市西山区金碧路靠近一心堂(昆明巡津街店)", 
        "poiName" : "一心堂(昆明巡津街店)"
    },
    { 
        "latitude" : 25.033296712239583, 
        "longitude" : 102.7165638563368, 
        "address" : "云南省昆明市西山区金碧路靠近一心堂(昆明巡津街店)", 
        "poiName" : "一心堂(昆明巡津街店)"
    },
    { 
        "latitude" : 25.03327907986111, 
        "longitude" : 102.71673475477431, 
        "address" : "云南省昆明市西山区金碧路靠近一心堂(昆明巡津街店)", 
        "poiName" : "一心堂(昆明巡津街店)"
    },
    { 
        "latitude" : 25.033314073350695, 
        "longitude" : 102.71693277994791, 
        "address" : "云南省昆明市西山区巡津街靠近一心堂(昆明巡津街店)", 
        "poiName" : "一心堂(昆明巡津街店)"
    },
    { 
        "latitude" : 25.033349609375, 
        "longitude" : 102.7171421983507, 
        "address" : "云南省昆明市西山区巡津街靠近一心堂(昆明巡津街店)", 
        "poiName" : "一心堂(昆明巡津街店)"
    },
    { 
        "latitude" : 25.03332465277778, 
        "longitude" : 102.71742567274306, 
        "address" : "云南省昆明市西山区巡津街靠近一心堂(昆明巡津街店)", 
        "poiName" : "一心堂(昆明巡津街店)"
    },
    { 
        "latitude" : 25.033250868055557, 
        "longitude" : 102.71764133029514, 
        "address" : "云南省昆明市西山区巡津街靠近一心堂(昆明巡津街店)", 
        "poiName" : "一心堂(昆明巡津街店)"
    },
    { 
        "latitude" : 25.033262261284722, 
        "longitude" : 102.71805853949652, 
        "address" : "云南省昆明市官渡区金碧路靠近南站新村小区6号院", 
        "poiName" : "南站新村小区6号院"
    },
    { 
        "latitude" : 25.03325222439236, 
        "longitude" : 102.7184876844618, 
        "address" : "云南省昆明市官渡区拓东路靠近昆铁得胜大厦", 
        "poiName" : "昆铁得胜大厦"
    },
    { 
        "latitude" : 25.033276909722222, 
        "longitude" : 102.71867919921876, 
        "address" : "云南省昆明市官渡区拓东路靠近昆铁得胜大厦", 
        "poiName" : "昆铁得胜大厦"
    },
    { 
        "latitude" : 25.03327935112847, 
        "longitude" : 102.71872205946181, 
        "address" : "云南省昆明市官渡区拓东路靠近昆铁得胜大厦", 
        "poiName" : "昆铁得胜大厦"
    },
    { 
        "latitude" : 25.033273383246527, 
        "longitude" : 102.71874972873263, 
        "address" : "云南省昆明市官渡区拓东路靠近昆铁得胜大厦", 
        "poiName" : "昆铁得胜大厦"
    },
    { 
        "latitude" : 25.033219401041666, 
        "longitude" : 102.71884982638889, 
        "address" : "云南省昆明市官渡区拓东路靠近昆铁得胜大厦", 
        "poiName" : "昆铁得胜大厦"
    },
    { 
        "latitude" : 25.03319634331597, 
        "longitude" : 102.71906331380208, 
        "address" : "云南省昆明市官渡区拓东路靠近昆铁得胜大厦", 
        "poiName" : "昆铁得胜大厦"
    },
    { 
        "latitude" : 25.033180067274305, 
        "longitude" : 102.71927490234376, 
        "address" : "云南省昆明市官渡区拓东路靠近建设大厦(北京路)", 
        "poiName" : "建设大厦(北京路)"
    },
    { 
        "latitude" : 25.03316134982639, 
        "longitude" : 102.7194788953993, 
        "address" : "云南省昆明市官渡区拓东路靠近建设大厦(北京路)", 
        "poiName" : "建设大厦(北京路)"
    },
    { 
        "latitude" : 25.03318603515625, 
        "longitude" : 102.7198548719618, 
        "address" : "云南省昆明市官渡区拓东路靠近建设大厦(北京路)", 
        "poiName" : "建设大厦(北京路)"
    },
    { 
        "latitude" : 25.033285590277778, 
        "longitude" : 102.72003282335069, 
        "address" : "云南省昆明市官渡区北京路靠近海天酒店", 
        "poiName" : "海天酒店"
    },
    { 
        "latitude" : 25.033302408854166, 
        "longitude" : 102.72004774305556, 
        "address" : "云南省昆明市官渡区北京路靠近海天酒店", 
        "poiName" : "海天酒店"
    },
    { 
        "latitude" : 25.033302137586805, 
        "longitude" : 102.72004774305556, 
        "address" : "云南省昆明市官渡区北京路靠近海天酒店", 
        "poiName" : "海天酒店"
    },
    { 
        "latitude" : 25.033306477864585, 
        "longitude" : 102.72007052951389, 
        "address" : "云南省昆明市官渡区北京路靠近海天酒店", 
        "poiName" : "海天酒店"
    },
    { 
        "latitude" : 25.033326822916667, 
        "longitude" : 102.72008897569444, 
        "address" : "云南省昆明市官渡区北京路靠近海天酒店", 
        "poiName" : "海天酒店"
    },
    { 
        "latitude" : 25.03351291232639, 
        "longitude" : 102.72004584418403, 
        "address" : "云南省昆明市官渡区北京路靠近海天酒店", 
        "poiName" : "海天酒店"
    },
    { 
        "latitude" : 25.033742404513887, 
        "longitude" : 102.72005126953125, 
        "address" : "云南省昆明市官渡区北京路靠近海天酒店", 
        "poiName" : "海天酒店"
    },
    { 
        "latitude" : 25.03404324001736, 
        "longitude" : 102.72008544921874, 
        "address" : "云南省昆明市盘龙区北京路靠近海天酒店", 
        "poiName" : "海天酒店"
    },
    { 
        "latitude" : 25.034385308159724, 
        "longitude" : 102.72007676866319, 
        "address" : "云南省昆明市盘龙区北京路靠近海天酒店", 
        "poiName" : "海天酒店"
    },
    { 
        "latitude" : 25.034833441840277, 
        "longitude" : 102.72008355034723, 
        "address" : "云南省昆明市盘龙区北京路靠近海天酒店", 
        "poiName" : "海天酒店"
    },
    { 
        "latitude" : 25.03525390625, 
        "longitude" : 102.72004231770833, 
        "address" : "云南省昆明市盘龙区北京路靠近昆明市公安局", 
        "poiName" : "昆明市公安局"
    },
    { 
        "latitude" : 25.035647786458334, 
        "longitude" : 102.71999538845486, 
        "address" : "云南省昆明市盘龙区尚义街靠近茶花公园", 
        "poiName" : "茶花公园"
    },
    { 
        "latitude" : 25.03615993923611, 
        "longitude" : 102.71994303385416, 
        "address" : "云南省昆明市盘龙区尚义街靠近茶花公园", 
        "poiName" : "茶花公园"
    },
    { 
        "latitude" : 25.03665554470486, 
        "longitude" : 102.71992214626736, 
        "address" : "云南省昆明市盘龙区北京路靠近茶花公园", 
        "poiName" : "茶花公园"
    },
    { 
        "latitude" : 25.037078993055555, 
        "longitude" : 102.71993082682292, 
        "address" : "云南省昆明市盘龙区北京路靠近茶花公园", 
        "poiName" : "茶花公园"
    },
    { 
        "latitude" : 25.037578125, 
        "longitude" : 102.71998318142361, 
        "address" : "云南省昆明市盘龙区北京路靠近恒隆广场(东风东路)", 
        "poiName" : "恒隆广场(东风东路)"
    },
    { 
        "latitude" : 25.037713216145832, 
        "longitude" : 102.71995659722222, 
        "address" : "云南省昆明市盘龙区北京路靠近恒隆广场(东风东路)", 
        "poiName" : "恒隆广场(东风东路)"
    },
    { 
        "latitude" : 25.037715386284724, 
        "longitude" : 102.71997829861111, 
        "address" : "云南省昆明市盘龙区北京路靠近恒隆广场(东风东路)", 
        "poiName" : "恒隆广场(东风东路)"
    },
    { 
        "latitude" : 25.037715657552084, 
        "longitude" : 102.71997775607639, 
        "address" : "云南省昆明市盘龙区北京路靠近恒隆广场(东风东路)", 
        "poiName" : "恒隆广场(东风东路)"
    },
    { 
        "latitude" : 25.037715386284724, 
        "longitude" : 102.71997829861111, 
        "address" : "云南省昆明市盘龙区北京路靠近恒隆广场(东风东路)", 
        "poiName" : "恒隆广场(东风东路)"
    },
    { 
        "latitude" : 25.03771484375, 
        "longitude" : 102.71998074001736, 
        "address" : "云南省昆明市盘龙区北京路靠近恒隆广场(东风东路)", 
        "poiName" : "恒隆广场(东风东路)"
    },
    { 
        "latitude" : 25.037710503472223, 
        "longitude" : 102.719970703125, 
        "address" : "云南省昆明市盘龙区北京路靠近恒隆广场(东风东路)", 
        "poiName" : "恒隆广场(东风东路)"
    },
    { 
        "latitude" : 25.037723253038195, 
        "longitude" : 102.71998562282987, 
        "address" : "云南省昆明市盘龙区北京路靠近恒隆广场(东风东路)", 
        "poiName" : "恒隆广场(东风东路)"
    },
    { 
        "latitude" : 25.037764756944444, 
        "longitude" : 102.71993815104166, 
        "address" : "云南省昆明市盘龙区北京路靠近恒隆广场(东风东路)", 
        "poiName" : "恒隆广场(东风东路)"
    },
    { 
        "latitude" : 25.03823947482639, 
        "longitude" : 102.71991590711805, 
        "address" : "云南省昆明市盘龙区北京路靠近金格百货(中心店)", 
        "poiName" : "金格百货(中心店)"
    },
    { 
        "latitude" : 25.038768988715276, 
        "longitude" : 102.71985649956598, 
        "address" : "云南省昆明市盘龙区北京路靠近昆明邮电大楼", 
        "poiName" : "昆明邮电大楼"
    },
    { 
        "latitude" : 25.039077962239585, 
        "longitude" : 102.7198570421007, 
        "address" : "云南省昆明市盘龙区北京路靠近昆明邮电大楼", 
        "poiName" : "昆明邮电大楼"
    },
    { 
        "latitude" : 25.039407823350693, 
        "longitude" : 102.71981825086806, 
        "address" : "云南省昆明市盘龙区北京路靠近昆明邮电大楼", 
        "poiName" : "昆明邮电大楼"
    },
    { 
        "latitude" : 25.0398876953125, 
        "longitude" : 102.71979763454861, 
        "address" : "云南省昆明市盘龙区北京路靠近昆明邮电大楼", 
        "poiName" : "昆明邮电大楼"
    },
    { 
        "latitude" : 25.04035942925347, 
        "longitude" : 102.71976318359376, 
        "address" : "云南省昆明市盘龙区北京路靠近云南震庄迎宾馆", 
        "poiName" : "云南震庄迎宾馆"
    },
    { 
        "latitude" : 25.040898980034722, 
        "longitude" : 102.71975179036458, 
        "address" : "云南省昆明市盘龙区北京路靠近云南震庄迎宾馆", 
        "poiName" : "云南震庄迎宾馆"
    },
    { 
        "latitude" : 25.041299370659722, 
        "longitude" : 102.71971408420139, 
        "address" : "云南省昆明市盘龙区北京路靠近云南震庄迎宾馆", 
        "poiName" : "云南震庄迎宾馆"
    },
    { 
        "latitude" : 25.041569281684026, 
        "longitude" : 102.71968560112848, 
        "address" : "云南省昆明市盘龙区北京路靠近云南震庄迎宾馆", 
        "poiName" : "云南震庄迎宾馆"
    },
    { 
        "latitude" : 25.041978624131943, 
        "longitude" : 102.71968668619792, 
        "address" : "云南省昆明市盘龙区北京路靠近中国工商银行(昆明牡丹支行)", 
        "poiName" : "中国工商银行(昆明牡丹支行)"
    },
    { 
        "latitude" : 25.042178005642363, 
        "longitude" : 102.71971381293403, 
        "address" : "云南省昆明市盘龙区北京路靠近中国工商银行(昆明牡丹支行)", 
        "poiName" : "中国工商银行(昆明牡丹支行)"
    },
    { 
        "latitude" : 25.042693413628474, 
        "longitude" : 102.71967258029514, 
        "address" : "云南省昆明市盘龙区北京路靠近广发大厦(北京路)", 
        "poiName" : "广发大厦(北京路)"
    },
    { 
        "latitude" : 25.04319769965278, 
        "longitude" : 102.71965033637153, 
        "address" : "云南省昆明市盘龙区人民中路靠近广发大厦(北京路)", 
        "poiName" : "广发大厦(北京路)"
    },
    { 
        "latitude" : 25.043495279947916, 
        "longitude" : 102.7196714952257, 
        "address" : "云南省昆明市盘龙区人民中路靠近广发大厦(北京路)", 
        "poiName" : "广发大厦(北京路)"
    },
    { 
        "latitude" : 25.04380805121528, 
        "longitude" : 102.71968071831597, 
        "address" : "云南省昆明市盘龙区人民中路靠近广发大厦(北京路)", 
        "poiName" : "广发大厦(北京路)"
    },
    { 
        "latitude" : 25.044178331163195, 
        "longitude" : 102.71961615668403, 
        "address" : "云南省昆明市盘龙区北京路靠近昆明佳新大酒店", 
        "poiName" : "昆明佳新大酒店"
    },
    { 
        "latitude" : 25.0445947265625, 
        "longitude" : 102.71959201388889, 
        "address" : "云南省昆明市盘龙区北京路靠近昆明佳新大酒店", 
        "poiName" : "昆明佳新大酒店"
    },
    { 
        "latitude" : 25.045092230902778, 
        "longitude" : 102.71953287760417, 
        "address" : "云南省昆明市盘龙区北京路靠近昆明佳新大酒店", 
        "poiName" : "昆明佳新大酒店"
    },
    { 
        "latitude" : 25.045587836371528, 
        "longitude" : 102.71953830295139, 
        "address" : "云南省昆明市盘龙区北京路靠近昆明海关", 
        "poiName" : "昆明海关"
    },
    { 
        "latitude" : 25.04596733940972, 
        "longitude" : 102.71949788411459, 
        "address" : "云南省昆明市盘龙区北京路靠近昆明海关", 
        "poiName" : "昆明海关"
    },
    { 
        "latitude" : 25.046426323784722, 
        "longitude" : 102.71953179253472, 
        "address" : "云南省昆明市盘龙区北京路靠近云南科技报社", 
        "poiName" : "云南科技报社"
    },
    { 
        "latitude" : 25.046985405815974, 
        "longitude" : 102.71956488715277, 
        "address" : "云南省昆明市盘龙区北京路靠近集丰大厦", 
        "poiName" : "集丰大厦"
    },
    { 
        "latitude" : 25.047426215277778, 
        "longitude" : 102.71955539279514, 
        "address" : "云南省昆明市盘龙区北京路靠近集丰大厦", 
        "poiName" : "集丰大厦"
    },
    { 
        "latitude" : 25.047779405381945, 
        "longitude" : 102.71954291449653, 
        "address" : "云南省昆明市盘龙区北京路靠近驰宇大厦(北京路)", 
        "poiName" : "驰宇大厦(北京路)"
    },
    { 
        "latitude" : 25.048258463541668, 
        "longitude" : 102.71955512152778, 
        "address" : "云南省昆明市盘龙区北京路靠近驰宇大厦(北京路)", 
        "poiName" : "驰宇大厦(北京路)"
    },
    { 
        "latitude" : 25.04875949435764, 
        "longitude" : 102.71955512152778, 
        "address" : "云南省昆明市盘龙区北京路靠近云粮金泉大酒店(穿金路)", 
        "poiName" : "云粮金泉大酒店(穿金路)"
    },
    { 
        "latitude" : 25.04901882595486, 
        "longitude" : 102.71959092881944, 
        "address" : "云南省昆明市盘龙区北京路靠近云粮金泉大酒店(穿金路)", 
        "poiName" : "云粮金泉大酒店(穿金路)"
    },
    { 
        "latitude" : 25.049073350694446, 
        "longitude" : 102.7195836046007, 
        "address" : "云南省昆明市盘龙区北京路靠近云粮金泉大酒店(穿金路)", 
        "poiName" : "云粮金泉大酒店(穿金路)"
    },
    { 
        "latitude" : 25.049171006944444, 
        "longitude" : 102.71957980685764, 
        "address" : "云南省昆明市盘龙区北京路靠近云粮金泉大酒店(穿金路)", 
        "poiName" : "云粮金泉大酒店(穿金路)"
    },
    { 
        "latitude" : 25.049191080729166, 
        "longitude" : 102.71959011501735, 
        "address" : "云南省昆明市盘龙区北京路靠近云粮金泉大酒店(穿金路)", 
        "poiName" : "云粮金泉大酒店(穿金路)"
    },
    { 
        "latitude" : 25.049192437065972, 
        "longitude" : 102.71959038628472, 
        "address" : "云南省昆明市盘龙区北京路靠近云粮金泉大酒店(穿金路)", 
        "poiName" : "云粮金泉大酒店(穿金路)"
    },
    { 
        "latitude" : 25.049192437065972, 
        "longitude" : 102.71959065755209, 
        "address" : "云南省昆明市盘龙区北京路靠近云粮金泉大酒店(穿金路)", 
        "poiName" : "云粮金泉大酒店(穿金路)"
    },
    { 
        "latitude" : 25.04927761501736, 
        "longitude" : 102.71959906684027, 
        "address" : "云南省昆明市盘龙区北京路靠近云粮金泉大酒店(穿金路)", 
        "poiName" : "云粮金泉大酒店(穿金路)"
    },
    { 
        "latitude" : 25.049556206597224, 
        "longitude" : 102.7195787217882, 
        "address" : "云南省昆明市盘龙区北京路靠近云粮金泉大酒店(穿金路)", 
        "poiName" : "云粮金泉大酒店(穿金路)"
    },
    { 
        "latitude" : 25.050032280815973, 
        "longitude" : 102.7195716688368, 
        "address" : "云南省昆明市盘龙区北京路靠近茉莉唐朝小区", 
        "poiName" : "茉莉唐朝小区"
    },
    { 
        "latitude" : 25.050215115017362, 
        "longitude" : 102.71962944878472, 
        "address" : "云南省昆明市盘龙区北京路靠近茉莉唐朝小区", 
        "poiName" : "茉莉唐朝小区"
    },
    { 
        "latitude" : 25.05062445746528, 
        "longitude" : 102.71958984375, 
        "address" : "云南省昆明市盘龙区北京路靠近茉莉唐朝小区", 
        "poiName" : "茉莉唐朝小区"
    },
    { 
        "latitude" : 25.05100613064236, 
        "longitude" : 102.71955240885417, 
        "address" : "云南省昆明市盘龙区北京路靠近员工小区", 
        "poiName" : "员工小区"
    },
    { 
        "latitude" : 25.051339246961806, 
        "longitude" : 102.71956353081598, 
        "address" : "云南省昆明市盘龙区北京路靠近员工小区", 
        "poiName" : "员工小区"
    },
    { 
        "latitude" : 25.051656358506943, 
        "longitude" : 102.71953342013889, 
        "address" : "云南省昆明市盘龙区北京路靠近鼓楼小区一号院", 
        "poiName" : "鼓楼小区一号院"
    },
    { 
        "latitude" : 25.05217746310764, 
        "longitude" : 102.71953423394098, 
        "address" : "云南省昆明市盘龙区北京路靠近鼓楼小区一号院", 
        "poiName" : "鼓楼小区一号院"
    },
    { 
        "latitude" : 25.0528369140625, 
        "longitude" : 102.7195689561632, 
        "address" : "云南省昆明市盘龙区北京路靠近鼓楼小区一号院", 
        "poiName" : "鼓楼小区一号院"
    },
    { 
        "latitude" : 25.05334228515625, 
        "longitude" : 102.7195814344618, 
        "address" : "云南省昆明市盘龙区北京路靠近中国银行(北站支行)", 
        "poiName" : "中国银行(北站支行)"
    },
    { 
        "latitude" : 25.053731282552082, 
        "longitude" : 102.71958740234375, 
        "address" : "云南省昆明市盘龙区北京路靠近中国银行(北站支行)", 
        "poiName" : "中国银行(北站支行)"
    },
    { 
        "latitude" : 25.054121365017362, 
        "longitude" : 102.71966769748263, 
        "address" : "云南省昆明市盘龙区环城北路靠近中国银行(北站支行)", 
        "poiName" : "中国银行(北站支行)"
    },
    { 
        "latitude" : 25.05447509765625, 
        "longitude" : 102.71982611762152, 
        "address" : "云南省昆明市盘龙区环城北路靠近中国银行(北站支行)", 
        "poiName" : "中国银行(北站支行)"
    },
    { 
        "latitude" : 25.054923502604165, 
        "longitude" : 102.7200173611111, 
        "address" : "云南省昆明市盘龙区环城北路靠近雄业大酒店", 
        "poiName" : "雄业大酒店"
    },
    { 
        "latitude" : 25.05527126736111, 
        "longitude" : 102.72014946831597, 
        "address" : "云南省昆明市盘龙区北京路靠近雄业大酒店", 
        "poiName" : "雄业大酒店"
    },
    { 
        "latitude" : 25.05569308810764, 
        "longitude" : 102.72029188368056, 
        "address" : "云南省昆明市盘龙区北京路靠近雄业大酒店", 
        "poiName" : "雄业大酒店"
    },
    { 
        "latitude" : 25.05630181206597, 
        "longitude" : 102.72052652994792, 
        "address" : "云南省昆明市盘龙区长寿路靠近火车北站(地铁站)", 
        "poiName" : "火车北站(地铁站)"
    },
    { 
        "latitude" : 25.053281, 
        "longitude" : 102.719369, 
        "address" : "云南省昆明市盘龙区北京路靠近中国银行(北站支行)", 
        "poiName" : "中国银行(北站支行)"
    },
    { 
        "latitude" : 25.058048773871526, 
        "longitude" : 102.72115993923612, 
        "province" : "", 
        "city" : "", 
        "address" : "", 
        "poiName" : ""
    },
    { 
        "latitude" : 25.058685980902776, 
        "longitude" : 102.72142849392361, 
        "address" : "云南省昆明市盘龙区北京路靠近世纪俊园", 
        "poiName" : "世纪俊园"
    },
    { 
        "latitude" : 25.059281955295138, 
        "longitude" : 102.72172661675347, 
        "address" : "云南省昆明市盘龙区联盟路靠近世纪俊园", 
        "poiName" : "世纪俊园"
    },
    { 
        "latitude" : 25.059925672743056, 
        "longitude" : 102.72197428385417, 
        "address" : "云南省昆明市盘龙区联盟路靠近soho俊园", 
        "poiName" : "soho俊园"
    },
    { 
        "latitude" : 25.060455186631945, 
        "longitude" : 102.72218180338541, 
        "address" : "云南省昆明市盘龙区北京路靠近soho俊园", 
        "poiName" : "soho俊园"
    },
    { 
        "latitude" : 25.06114013671875, 
        "longitude" : 102.72232828776042, 
        "address" : "云南省昆明市盘龙区北京路靠近金童花园", 
        "poiName" : "金童花园"
    },
    { 
        "latitude" : 25.061846788194444, 
        "longitude" : 102.72257432725695, 
        "address" : "云南省昆明市盘龙区北京路靠近金童花园", 
        "poiName" : "金童花园"
    },
    { 
        "latitude" : 25.062108289930556, 
        "longitude" : 102.7226744249132, 
        "address" : "云南省昆明市盘龙区北京路靠近金童花园", 
        "poiName" : "金童花园"
    },
    { 
        "latitude" : 25.062341851128473, 
        "longitude" : 102.72280300564236, 
        "address" : "云南省昆明市盘龙区北京路靠近金童花园", 
        "poiName" : "金童花园"
    },
    { 
        "latitude" : 25.062558051215277, 
        "longitude" : 102.72282769097222, 
        "address" : "云南省昆明市盘龙区北京路靠近时光俊园", 
        "poiName" : "时光俊园"
    },
    { 
        "latitude" : 25.0626611328125, 
        "longitude" : 102.72287000868056, 
        "address" : "云南省昆明市盘龙区北京路靠近时光俊园", 
        "poiName" : "时光俊园"
    },
    { 
        "latitude" : 25.062967122395833, 
        "longitude" : 102.72296712239583, 
        "address" : "云南省昆明市盘龙区北京路靠近时光俊园", 
        "poiName" : "时光俊园"
    },
    { 
        "latitude" : 25.063275824652777, 
        "longitude" : 102.72308078342014, 
        "address" : "云南省昆明市盘龙区北京路靠近时光俊园", 
        "poiName" : "时光俊园"
    },
    { 
        "latitude" : 25.063648274739585, 
        "longitude" : 102.7232261827257, 
        "address" : "云南省昆明市盘龙区北京路靠近时光俊园", 
        "poiName" : "时光俊园"
    },
    { 
        "latitude" : 25.06399115668403, 
        "longitude" : 102.72332682291666, 
        "address" : "云南省昆明市盘龙区北京路靠近昆明市教育委员会马家营教师住宅区", 
        "poiName" : "昆明市教育委员会马家营教师住宅区"
    },
    { 
        "latitude" : 25.06426540798611, 
        "longitude" : 102.72343994140626, 
        "address" : "云南省昆明市盘龙区北京路靠近昆明市教育委员会马家营教师住宅区", 
        "poiName" : "昆明市教育委员会马家营教师住宅区"
    },
    { 
        "latitude" : 25.06465793185764, 
        "longitude" : 102.72357313368056, 
        "address" : "云南省昆明市盘龙区北京路靠近教苑宾馆", 
        "poiName" : "教苑宾馆"
    },
    { 
        "latitude" : 25.06523952907986, 
        "longitude" : 102.72379096137153, 
        "address" : "云南省昆明市盘龙区北京路靠近教苑宾馆", 
        "poiName" : "教苑宾馆"
    },
    { 
        "latitude" : 25.065479329427085, 
        "longitude" : 102.72390435112847, 
        "address" : "云南省昆明市盘龙区白云路靠近财智心景大厦", 
        "poiName" : "财智心景大厦"
    },
    { 
        "latitude" : 25.06548583984375, 
        "longitude" : 102.72392252604166, 
        "address" : "云南省昆明市盘龙区白云路靠近财智心景大厦", 
        "poiName" : "财智心景大厦"
    },
    { 
        "latitude" : 25.065516493055554, 
        "longitude" : 102.72393174913195, 
        "address" : "云南省昆明市盘龙区白云路靠近财智心景大厦", 
        "poiName" : "财智心景大厦"
    },
    { 
        "latitude" : 25.065799967447916, 
        "longitude" : 102.72400933159722, 
        "address" : "云南省昆明市盘龙区白云路靠近财智心景大厦", 
        "poiName" : "财智心景大厦"
    },
    { 
        "latitude" : 25.066190863715278, 
        "longitude" : 102.72415011935765, 
        "address" : "云南省昆明市盘龙区白云路靠近金色年华", 
        "poiName" : "金色年华"
    },
    { 
        "latitude" : 25.066370713975694, 
        "longitude" : 102.72423285590278, 
        "address" : "云南省昆明市盘龙区白云路靠近金色年华", 
        "poiName" : "金色年华"
    },
    { 
        "latitude" : 25.06668484157986, 
        "longitude" : 102.72434624565972, 
        "address" : "云南省昆明市盘龙区北京路靠近金色年华", 
        "poiName" : "金色年华"
    },
    { 
        "latitude" : 25.067026638454863, 
        "longitude" : 102.72439860026041, 
        "address" : "云南省昆明市盘龙区北京路靠近金色年华", 
        "poiName" : "金色年华"
    },
    { 
        "latitude" : 25.067447645399305, 
        "longitude" : 102.72454806857638, 
        "address" : "云南省昆明市盘龙区北京路靠近家乐福(白云店)", 
        "poiName" : "家乐福(白云店)"
    },
    { 
        "latitude" : 25.067709147135417, 
        "longitude" : 102.7246359592014, 
        "address" : "云南省昆明市盘龙区北京路靠近家乐福(白云店)", 
        "poiName" : "家乐福(白云店)"
    },
    { 
        "latitude" : 25.06795166015625, 
        "longitude" : 102.72472601996527, 
        "address" : "云南省昆明市盘龙区北京路靠近家乐福(白云店)", 
        "poiName" : "家乐福(白云店)"
    },
    { 
        "latitude" : 25.06841254340278, 
        "longitude" : 102.72489529079861, 
        "address" : "云南省昆明市盘龙区北京路靠近金华园", 
        "poiName" : "金华园"
    },
    { 
        "latitude" : 25.068770073784723, 
        "longitude" : 102.72503200954861, 
        "address" : "云南省昆明市盘龙区北京路靠近金华园", 
        "poiName" : "金华园"
    },
    { 
        "latitude" : 25.069021267361112, 
        "longitude" : 102.72513075086806, 
        "address" : "云南省昆明市盘龙区北京路靠近金华园", 
        "poiName" : "金华园"
    },
    { 
        "latitude" : 25.06927544487847, 
        "longitude" : 102.72518988715278, 
        "address" : "云南省昆明市盘龙区北京路靠近金华园", 
        "poiName" : "金华园"
    },
    { 
        "latitude" : 25.069695638020832, 
        "longitude" : 102.72533799913194, 
        "address" : "云南省昆明市盘龙区北京路靠近金星广场", 
        "poiName" : "金星广场"
    },
    { 
        "latitude" : 25.07020263671875, 
        "longitude" : 102.72558892144097, 
        "address" : "云南省昆明市盘龙区北京路靠近金星广场", 
        "poiName" : "金星广场"
    },
    { 
        "latitude" : 25.070643174913194, 
        "longitude" : 102.72573187934027, 
        "address" : "云南省昆明市盘龙区北京路靠近金星广场", 
        "poiName" : "金星广场"
    },
    { 
        "latitude" : 25.071108669704863, 
        "longitude" : 102.72590440538194, 
        "address" : "云南省昆明市盘龙区北京路靠近金星广场", 
        "poiName" : "金星广场"
    },
    { 
        "latitude" : 25.07130859375, 
        "longitude" : 102.7260484483507, 
        "address" : "云南省昆明市盘龙区北京路靠近金星立交桥", 
        "poiName" : "金星立交桥"
    },
    { 
        "latitude" : 25.071474338107638, 
        "longitude" : 102.7262828233507, 
        "address" : "云南省昆明市盘龙区北京路靠近金星立交桥", 
        "poiName" : "金星立交桥"
    },
    { 
        "latitude" : 25.071981879340278, 
        "longitude" : 102.72625732421875, 
        "address" : "云南省昆明市盘龙区北京路靠近金星立交桥", 
        "poiName" : "金星立交桥"
    },
    { 
        "latitude" : 25.072432725694444, 
        "longitude" : 102.72631944444444, 
        "address" : "云南省昆明市盘龙区北京路靠近金星立交桥", 
        "poiName" : "金星立交桥"
    },
    { 
        "latitude" : 25.073016221788194, 
        "longitude" : 102.7265576171875, 
        "address" : "云南省昆明市盘龙区北京路靠近金星立交桥", 
        "poiName" : "金星立交桥"
    },
    { 
        "latitude" : 25.073607313368054, 
        "longitude" : 102.72672987196181, 
        "address" : "云南省昆明市盘龙区金实路靠近华秋园", 
        "poiName" : "华秋园"
    },
    { 
        "latitude" : 25.074216037326387, 
        "longitude" : 102.7269468858507, 
        "address" : "云南省昆明市盘龙区北京路靠近华秋园", 
        "poiName" : "华秋园"
    },
    { 
        "latitude" : 25.074566786024306, 
        "longitude" : 102.72711941189236, 
        "address" : "云南省昆明市盘龙区北京路靠近华秋园", 
        "poiName" : "华秋园"
    },
    { 
        "latitude" : 25.07485134548611, 
        "longitude" : 102.72726643880209, 
        "address" : "云南省昆明市盘龙区北京路靠近华秋园", 
        "poiName" : "华秋园"
    },
    { 
        "latitude" : 25.074986707899306, 
        "longitude" : 102.72735080295139, 
        "address" : "云南省昆明市盘龙区北京路靠近华秋园", 
        "poiName" : "华秋园"
    },
    { 
        "latitude" : 25.07531005859375, 
        "longitude" : 102.72754448784723, 
        "address" : "云南省昆明市盘龙区北京路靠近华秋园", 
        "poiName" : "华秋园"
    },
    { 
        "latitude" : 25.075716417100693, 
        "longitude" : 102.72777452256945, 
        "address" : "云南省昆明市盘龙区北京路靠近华秋园", 
        "poiName" : "华秋园"
    },
    { 
        "latitude" : 25.07620578342014, 
        "longitude" : 102.72809678819445, 
        "address" : "云南省昆明市盘龙区花园街靠近景秀花园", 
        "poiName" : "景秀花园"
    },
    { 
        "latitude" : 25.076493869357638, 
        "longitude" : 102.72830403645834, 
        "address" : "云南省昆明市盘龙区花园街靠近景秀花园", 
        "poiName" : "景秀花园"
    },
    { 
        "latitude" : 25.076711154513887, 
        "longitude" : 102.72848578559028, 
        "address" : "云南省昆明市盘龙区北京路靠近景秀花园", 
        "poiName" : "景秀花园"
    },
    { 
        "latitude" : 25.076996256510416, 
        "longitude" : 102.7287708875868, 
        "address" : "云南省昆明市盘龙区北京路靠近景秀花园", 
        "poiName" : "景秀花园"
    },
    { 
        "latitude" : 25.077334255642363, 
        "longitude" : 102.72912353515625, 
        "address" : "云南省昆明市盘龙区北京路靠近昆明市盘龙区永胜学校", 
        "poiName" : "昆明市盘龙区永胜学校"
    },
    { 
        "latitude" : 25.077836642795138, 
        "longitude" : 102.72959716796875, 
        "address" : "云南省昆明市盘龙区北京路靠近昆明市盘龙区永胜学校", 
        "poiName" : "昆明市盘龙区永胜学校"
    },
    { 
        "latitude" : 25.078237575954862, 
        "longitude" : 102.72998942057292, 
        "address" : "云南省昆明市盘龙区北京路靠近昆明市盘龙区永胜学校", 
        "poiName" : "昆明市盘龙区永胜学校"
    },
    { 
        "latitude" : 25.07841525607639, 
        "longitude" : 102.73011854383681, 
        "address" : "云南省昆明市盘龙区北京路靠近昆明市公安局交警支队车辆管理所金泉机动车登记服务站", 
        "poiName" : "昆明市公安局交警支队车辆管理所金泉机动车登记服务站"
    },
    { 
        "latitude" : 25.078683268229167, 
        "longitude" : 102.73041124131944, 
        "address" : "云南省昆明市盘龙区北京路靠近昆明市公安局交警支队车辆管理所金泉机动车登记服务站", 
        "poiName" : "昆明市公安局交警支队车辆管理所金泉机动车登记服务站"
    },
    { 
        "latitude" : 25.07899386935764, 
        "longitude" : 102.73076199001736, 
        "address" : "云南省昆明市盘龙区北京路靠近昆明市公安局交警支队车辆管理所金泉机动车登记服务站", 
        "poiName" : "昆明市公安局交警支队车辆管理所金泉机动车登记服务站"
    },
    { 
        "latitude" : 25.07942084418403, 
        "longitude" : 102.73119194878473, 
        "address" : "云南省昆明市盘龙区北京路靠近平安银行(昆明欣龙支行)", 
        "poiName" : "平安银行(昆明欣龙支行)"
    },
    { 
        "latitude" : 25.079748263888888, 
        "longitude" : 102.73147162543403, 
        "address" : "云南省昆明市盘龙区北京路靠近平安银行(昆明欣龙支行)", 
        "poiName" : "平安银行(昆明欣龙支行)"
    },
    { 
        "latitude" : 25.08003146701389, 
        "longitude" : 102.73174370659723, 
        "address" : "云南省昆明市盘龙区北京路靠近欣都龙城(北京路)", 
        "poiName" : "欣都龙城(北京路)"
    },
    { 
        "latitude" : 25.08032904730903, 
        "longitude" : 102.7320591905382, 
        "address" : "云南省昆明市盘龙区北京路靠近欣都龙城(北京路)", 
        "poiName" : "欣都龙城(北京路)"
    },
    { 
        "latitude" : 25.080556911892362, 
        "longitude" : 102.73235080295139, 
        "address" : "云南省昆明市盘龙区北京路靠近欣都龙城(北京路)", 
        "poiName" : "欣都龙城(北京路)"
    },
    { 
        "latitude" : 25.08075656467014, 
        "longitude" : 102.73255398220486, 
        "address" : "云南省昆明市盘龙区北京路靠近欣都龙城(北京路)", 
        "poiName" : "欣都龙城(北京路)"
    },
    { 
        "latitude" : 25.081092122395834, 
        "longitude" : 102.7328285047743, 
        "address" : "云南省昆明市盘龙区北京路靠近北辰财富中心文化艺术广场", 
        "poiName" : "北辰财富中心文化艺术广场"
    },
    { 
        "latitude" : 25.081512315538195, 
        "longitude" : 102.73326470269097, 
        "address" : "云南省昆明市盘龙区北京路靠近北辰财富中心文化艺术广场", 
        "poiName" : "北辰财富中心文化艺术广场"
    },
    { 
        "latitude" : 25.081962076822915, 
        "longitude" : 102.7336252170139, 
        "address" : "云南省昆明市盘龙区北京路靠近北辰财富中心文化艺术广场", 
        "poiName" : "北辰财富中心文化艺术广场"
    },
    { 
        "latitude" : 25.082421875, 
        "longitude" : 102.73404947916667, 
        "address" : "云南省昆明市盘龙区北京路靠近北辰财富中心", 
        "poiName" : "北辰财富中心"
    },
    { 
        "latitude" : 25.082913682725696, 
        "longitude" : 102.73453423394098, 
        "address" : "云南省昆明市盘龙区北京路靠近鑫世界西区", 
        "poiName" : "鑫世界西区"
    },
    { 
        "latitude" : 25.083447808159722, 
        "longitude" : 102.73500596788195, 
        "address" : "云南省昆明市盘龙区北京路靠近北辰财富中心", 
        "poiName" : "北辰财富中心"
    }
]
